{
   "type": "FeatureCollection",
   "features": [
  {
    "type": "Feature",
    "geometry": {
       "type": "Point",
       "coordinates":  [ 72.8727,19.0747 ]
    },
    "properties": {
    "name":"Manoj Medical & General Stores",
    "address":"Shop No.6 Building No. 24, Chatrapati Shivaji Terminus Road, Kurla (W), Mumbai, Maharashtra 400070",
    "contact_no":9892828511
    }
  },
  {
    "type": "Feature",
    "geometry": {
       "type": "Point",
       "coordinates":  [ 72.8346,19.0876 ]
    },
    "properties": {
    "name":"Deepak Medical Stores",
    "address":"C/8, J K Industrial Estate, Linking Road, Shastri Nagar, Santacruz (W), Mumbai, Maharashtra 400054",
    "contact_no":9784693866
    }
  },
  {
    "type": "Feature",
    "geometry": {
       "type": "Point",
       "coordinates":  [ 72.8823,19.0646 ]
    },
    "properties": {
    "name":"Kurla Medical & General Stores",
    "address":"Shop No. 3, B Wing, Kurla Kadam Housing Society Li, Akbar Sultan Khan Chowk, Bhiva Bapu Magre Marg, Nehru Nagar, Kurla (E), Mumbai, Maharashtra 400024",
    "contact_no":9920096027
    }
  },
  {
    "type": "Feature",
    "geometry": {
       "type": "Point",
       "coordinates":  [ 72.8768,19.0654 ]
    },
    "properties": {
    "name":"Modern Medico",
    "address":"Chota Ghol Building,Opposite K B Babha Hospital, A H Wadia Marg, Old Agra Road, Shell Colony, Sahakar Nagar, Kurla, Mumbai, Maharashtra 400070",
    "contact_no":2226505545
    }
  },
  {
    "type": "Feature",
    "geometry": {
       "type": "Point",
       "coordinates":  [ 72.8822,19.0824 ]
    },
    "properties": {
    "name":"Sheetal Chemist",
    "address":"Sai Niketan, Shop No 5, Plot No 175,Near Sheetal Cinema, LBS Rd, Kurla (W), Mumbai, Maharashtra 400070",
    "contact_no":9892837199
    }
  },
  {
    "type": "Feature",
    "geometry": {
       "type": "Point",
       "coordinates":  [ 72.8798,19.0676 ]
    },
    "properties": {
    "name":"Noor Chemist Druggist & General Stores",
    "address":"M K Height, Shop No.1,Rajkotwala Bldg,, Pipe Line Rd, Kurla (W), Mumbai, Maharashtra 400070",
    "contact_no":2226524352
    }
  },
  {
    "type": "Feature",
    "geometry": {
       "type": "Point",
       "coordinates":  [ 72.8815,19.0641 ]
    },
    "properties": {
    "name":"Ranjan medical",
    "address":"Shop No.10, Golden Plaza CHS, Dion Sheltep, S. G. Barve Margr, Nehru Nagar, Kurla (E), Mumbai, Maharashtra 400070",
    "contact_no":9664347781
    }
  },
  {
    "type": "Feature",
    "geometry": {
       "type": "Point",
       "coordinates":  [ 72.8753,19.0659 ]
    },
    "properties": {
    "name":"Anand Medical & General Stores",
    "address":"178-B, Sidh Mahal, Belgrami Road, Kurla (W), Mumbai, Maharashtra 400070",
    "contact_no":2226505940
    }
  },
  {
    "type": "Feature",
    "geometry": {
       "type": "Point",
       "coordinates":  [ 72.8761,19.0658 ]
    },
    "properties": {
    "name":"Master Medical & General Stores",
    "address":"Shop No. 5, Ghag Bhuvan No. 104, Belgrami Rd, Chhadva Nagar, Kurla (W), Mumbai, Maharashtra 400070",
    "contact_no":2226503680
    }
  },
  {
    "type": "Feature",
    "geometry": {
       "type": "Point",
       "coordinates":  [ 72.8789,19.0661 ]
    },
    "properties": {
    "name":"Jyoti Medical Stores",
    "address":"Shop No: 5, Sahkar Building, Kurla Station Rd, Brahmanwadi, Kurla, Mumbai, Maharashtra 400070",
    "contact_no":2226500528
    }
  },
  {
    "type": "Feature",
    "geometry": {
       "type": "Point",
       "coordinates":  [ 72.9059,19.0741 ]
    },
    "properties": {
    "name":"Mallinath Medical & General Stores",
    "address":"90 Feet Road, 90 Feet Road, Sudarshan Society, Barrister Nath Pai Nagar, Ghatkopar (E), Mumbai, Maharashtra 400077",
    "contact_no":2225062428
    }
  },
  {
    "type": "Feature",
    "geometry": {
       "type": "Point",
       "coordinates":  [ 72.9078,19.0882 ]
    },
    "properties": {
    "name":"Jai hind medical stores",
    "address":"Near Sarvodaya Hospital, Shop No 5, Hirachad Desai Muncipal Market, Hirachad Desai Road, Opposite Central Go, Mumbai, Maharashtra 400086",
    "contact_no":2225770664
    }
  },
  {
    "type": "Feature",
    "geometry": {
       "type": "Point",
       "coordinates":  [ 72.901,19.078 ]
    },
    "properties": {
    "name":"Shree Siddhi Medical",
    "address":"Shop No.2,Ground Floor,C Wing Prem Smruti Chs.Ltd., Rajawadi Ghat Kooper, Rajawadi Colony, Mumbai, Maharashtra 400077",
    "contact_no":2228746523
    }
  },
  {
    "type": "Feature",
    "geometry": {
       "type": "Point",
       "coordinates":  [ 72.9032,19.0775 ]
    },
    "properties": {
    "name":"Shree Mandeo Medical",
    "address":"Shop no10, Sardar house, Rajawadi Road, Rajawadi Colony, Ghatkopar (E), Mumbai, Maharashtra 400077",
    "contact_no":9920851698
    }
  },
  {
    "type": "Feature",
    "geometry": {
       "type": "Point",
       "coordinates":  [ 72.8973,19.0812 ]
    },
    "properties": {
    "name":"Mauli Medical and General Stores",
    "address":"Kirol Village, Vidyavihar Society, Ghatkopar (W), Mumbai, Maharashtra 400086",
    "contact_no":8080184339
    }
  }
]
}